nom,cate,lat,lon,ico,cod,cod_old,estado
MONTE GRANDE,CO,-7.22499,-79.15323,M,100090,000396,DIFERIDO
PUENTE  MAYGASBAMBA,HLG,-6.67411,-78.52437,H,221110,220307,DIFERIDO
QUEBRADA SHUGAR,PLU,-6.68778,-78.45694,M,100113,153108,DIFERIDO
CHUGUR,PLU,-6.66878,-78.738,M,106077,153208,DIFERIDO
LA CASCARILLA,CO,-5.67175,-78.89767,M,105062,000349,DIFERIDO
CHONTALI,CO,-5.64389,-79.09,M,105065,000250,DIFERIDO
CACAO,HLM,-5.8837,-78.9625,H,220405,220405,DIFERIDO
EL LIMON,CO,-5.91778,-79.31722,M,105057,000241,DIFERIDO
HACIENDA PUCARA,PLU,-6.04167,-79.13389,M,106065,153107,DIFERIDO
SALLIQUE,CO,-5.65886,-79.31264,M,105053,002129,DIFERIDO
COCHALAN,PLU,-5.4654,-78.9888,M,105111,152212,DIFERIDO
COCHALAN,HLG,-5.4651,-78.9885,H,220814,220815,DIFERIDO
LIVES,PLU,-7.0802,-79.04045,M,107055,153111,DIFERIDO
CIRATO,HLG,-6.65579,-79.07395,H,106122,200909,DIFERIDO
CHANCAY BAÑOS,CO,-6.575,-78.86722,M,106022,000395,DIFERIDO
SALCCA,PE,-14.16997,-71.23187,M,114131,114131,DIFERIDO
CHACLLABAMBA,CO,-13.10855,-71.72,M,113139,155518,DIFERIDO
CHONTACHACA,CO,-13.02389,-71.46778,M,100030,006671,DIFERIDO
HUANCALPI,CO,-12.58029,-75.24179,M,112142,156126,DIFERIDO
HUACHOS,CO,-13.2206,-75.53348,M,113067,151503,DIFERIDO
SAN JUAN DE CASTROVIRREYNA,CO,-13.21198,-75.62758,M,113082,156114,DIFERIDO
CHOCLOCOCHA,CO,-13.1588,-75.07145,M,113091,156130,DIFERIDO
PAUCARBAMBA,CO,-12.55573,-74.53592,M,112066,000658,DIFERIDO
CORDOVA,PLU,-14.04061,-75.18698,M,114065,157101,DIFERIDO
TUNEL CERO,CO,-13.25932,-75.08596,M,113016,000647,DIFERIDO
CUSICANCHA,CO,-13.50399,-75.29625,M,113086,156121,DIFERIDO
CHALLACA PLU,PLU,-13.7896,-75.40029,M,100025,000009,DIFERIDO
CHALLACA CO,CO,-13.79047,-75.38212,M,113128,006640,DIFERIDO
SANTIAGO DE CHOCORVOS,CO,-13.83308,-75.25083,M,113088,156123,DIFERIDO
TAMBO,CO,-13.69163,-75.27418,M,113087,156122,DIFERIDO
CHINCHAVITO,HLM,-9.515,-75.9425,H,230003,230003,DIFERIDO
CARPISH,CO,-9.70568,-76.09424,M,109020,000454,DIFERIDO
TARUCA,HLM,-9.84694,-76.15111,H,230002,230002,DIFERIDO
PUENTE BELLA,HLM,-9.32369,-76.02977,H,230004,230004,DIFERIDO
PUENTE PEREZ,HLM,-9.34694,-75.9825,H,230001,230001,DIFERIDO
LOS MOLINOS,PLU,-13.9248,-75.6786,M,113244,113244,DIFERIDO
SANTIAGO,PE,-14.1929,-75.64787,M,114105,006642,DIFERIDO
HUALLPOCA,PLU,-14.632,-74.9559,M,114106,156225,DIFERIDO
MADRIGAL,CO,-15.60999,-71.80654,M,115092,157317,DIFERIDO
SUMBAY,HLG,-15.8412,-71.1146,H,204702,204702,DIFERIDO
PILLONES,CO,-15.98124,-71.2167,M,115126,158208,DIFERIDO
PUENTE COLGANTE-SIBAYO,HLG,-15.4942,-71.4637,H,204604,204604,DIFERIDO
PORPERA,CO,-15.3142,-71.3064,M,115101,157329,DIFERIDO
TISCO,CO,-15.3142,-71.30639,M,115098,157325,DIFERIDO
CHICHAS,CO,-15.54811,-72.91831,M,115078,157300,DIFERIDO
SALAMANCA,HLM,-15.5033,-72.8318,H,204501,204501,DIFERIDO
YANAQUIHUA,CO,-15.77649,-72.87584,M,115128,000864,DIFERIDO
LA HACIENDITA,CO,-16.9986,-71.6008,M,117006,000838,DIFERIDO
PULLHUAY (AYAHUASI),CO,-15.1459,-72.7439,M,115084,157309,DIFERIDO
PUICA,CO,-15.06055,-72.69262,M,115082,157307,DIFERIDO
HUANCASANCOS,CO,-13.91694,-74.33361,M,100055,156218,DIFERIDO
HUANTA,CO,-12.9113,-74.2832,M,112068,000660,DIFERIDO
HUASAPAMPA,HLG,-14.26667,-73.95,H,230705,230705,DIFERIDO
LLAUTA,PLU,-14.2466,-74.9255,M,114067,157200,DIFERIDO
LUCANAS,PLU,-14.6204,-74.2328,M,114072,157206,DIFERIDO
LAMPA,PLU,-15.18468,-73.34786,M,115076,157223,DIFERIDO
CHILCAYOC,CO,-13.883,-73.7268,M,113101,156212,DIFERIDO
CHOTANO LAJAS,PLU,-6.5622,-78.7389,M,106084,153235,DIFERIDO
CASCABAMBA,HLM,-7.38332,-78.73377,H,201301,201301,DIFERIDO
OCROS,PLU,-10.40457,-77.40025,M,110051,155105,DIFERIDO
CAHUA,HLG,-10.606,-77.34389,H,202404,202404,DIFERIDO
NUEVO PACHACOTO,PLU,-9.85242,-77.40607,M,109095,109095,DIFERIDO
CHIRIACO,CO,-5.16144,-78.28806,M,105104,000229,DIFERIDO
SANTA MARIA DE NIEVA,CO,-4.83039,-77.93928,M,104060,000256,DIFERIDO
EL PINTOR,PLU,-5.7562,-78.52286,M,105040,152204,DIFERIDO
MAGUNCHAL,PLU,-5.8904,-78.1891,M,105046,152210,DIFERIDO
MAGUNCHAL,HLG,-5.8898,-78.1886,H,221506,221506,DIFERIDO
EL PALTO,CO,-6.00039,-78.47097,M,106121,003332,DIFERIDO
SAN PEDRO,HLM,-9.60776,-77.50963,H,211404,201720,DIFERIDO
SANTIAGO ANTUNEZ DE MAYOLO,MAP,-9.51653,-77.52486,M,109009,000426,DIFERIDO
CHACCHAN,PLU,-9.53519,-77.77536,M,109045,154107,DIFERIDO
PIRA,PLU,-9.58528,-77.70719,M,109048,154110,DIFERIDO
MAYORARCA,PLU,-10.15775,-77.34889,M,110040,150903,DIFERIDO
BUENA VISTA,CO,-9.43371,-78.20825,M,109014,000435,DIFERIDO
CUNYAC,PLU,-13.56334,-72.57594,M,113136,156224,DIFERIDO
CHARCANI,HLG,-16.3109,-71.4949,H,204710,204711,DIFERIDO
LAS SALINAS,CO,-16.3206,-71.1521,M,116046,158209,DIFERIDO
EL FRAYLE,CO,-16.15482,-71.1891,M,116022,000849,DIFERIDO
PATAHUASI-AREQUIPA,CO,-16.05542,-71.41481,M,116073,116073,DIFERIDO
PAMPA DE ARRIEROS,CO,-16.0665,-71.5914,M,116043,158204,DIFERIDO
AYO,CO,-15.6833,-72.2704,M,115088,157313,DIFERIDO
CHACHAS,CO,-15.5025,-72.2686,M,115087,157312,DIFERIDO
GORGOR,PLU,-10.62136,-77.04027,M,110041,151208,DIFERIDO
ARAHUAY,PLU,-11.62091,-76.67034,M,111057,151204,DIFERIDO
HUAMANTANGA,PLU,-11.5,-76.75,M,111085,155209,DIFERIDO
HUAROS,PLU,-11.40743,-76.5758,M,111089,155218,DIFERIDO
PARIACANCHA,HLM,-11.39315,-76.50244,H,202801,202801,DIFERIDO
PARIACANCHA,PLU,-11.39357,-76.50271,M,111067,155112,DIFERIDO
LACHAQUI,PLU,-11.55327,-76.62844,M,111088,155217,DIFERIDO
OBRAJILLO,PLU,-11.45264,-76.62206,M,111159,156133,DIFERIDO
CAÑETE,CP,-13.07475,-76.33042,M,113006,000616,DIFERIDO
PIRCA,PLU,-11.2328,-76.65513,M,111087,155214,DIFERIDO
PALLAC,PLU,-11.34874,-76.80804,M,111083,155205,DIFERIDO
PUERTO ALMENDRA,HLM,-3.82743,-73.37741,H,240302,240302,DIFERIDO
SAN ROQUE,CP,-3.78667,-73.29333,M,103052,000176,DIFERIDO
SEDA LORETO,HLM,-3.7528,-73.281,H,240106,240105,DIFERIDO
ANGAMOS,HLM,-5.1512,-72.8752,H,240401,240111,DIFERIDO
ANGAMOS,CO,-5.1498,-72.8771,M,105078,000269,DIFERIDO
BORJA,PLU,-4.4696,-77.5483,M,104061,000270,DIFERIDO
EL ESTRECHO,CO,-2.4467,-72.6643,M,102006,000110,DIFERIDO
SANTA CRUZ,PLU,-11.19827,-76.63487,M,111081,155202,DIFERIDO
ANTIOQUIA,PE,-12.07773,-76.51359,M,112124,156100,DIFERIDO
CARAMPOMA,PLU,-11.65503,-76.51514,M,111091,155223,DIFERIDO
SHEQUE,PLU,-11.66095,-76.5023,M,111062,151213,DIFERIDO
MILLOC,HLM,-11.57046,-76.35017,H,202902,202902,DIFERIDO
MILLOC,PLU,-11.57131,-76.34995,M,111144,155514,DIFERIDO
CASAPALCA,PLU,-11.63804,-76.23332,M,111114,155446,DIFERIDO
RIO BLANCO,PLU,-11.73447,-76.25967,M,111061,151210,DIFERIDO
TINGO,PLU,-11.61667,-76.48334,M,111066,155111,DIFERIDO
LANGA,PLU,-12.12645,-76.42108,M,112082,151214,DIFERIDO
AUTISHA,PLU,-11.73815,-76.61103,M,111077,155122,DIFERIDO
AUTISHA,HLM,-11.73523,-76.60659,H,202903,202903,DIFERIDO
SAN JOSE DE PARAC,PLU,-11.80053,-76.25811,M,111093,155225,DIFERIDO
SAN MATEO DE OTAO,PLU,-11.847,-76.5636,M,111291,111291,DIFERIDO
HUANCATA,PLU,-12.18618,-76.24066,M,112080,151207,DIFERIDO
SANTIAGO DE TUNA,PLU,-11.9832,-76.5242,M,111092,155224,DIFERIDO
AMBAR,PLU,-10.75484,-77.2668,M,110042,151211,DIFERIDO
PAMPA LIBRE,CO,-10.86578,-76.97,M,110053,155107,DIFERIDO
PACHAMACHAY,PLU,-11.06525,-76.9141,M,111084,155207,DIFERIDO
PACCHO,PLU,-10.95602,-76.93473,M,110056,155200,DIFERIDO
PARQUIN,PLU,-10.96665,-76.71983,M,110063,155212,DIFERIDO
LAGUNA SURASACA,HLG,-10.5213,-76.7885,H,202601,202601,DIFERIDO
LAGUNA SURASACA,PLU,-10.5238,-76.7867,M,110059,155206,DIFERIDO
LAGUNA COCHAQUILLO,PLU,-10.80394,-76.65537,M,110092,155291,DIFERIDO
OYON,CO,-10.66769,-76.7687,M,110020,000541,DIFERIDO
ANDAJES,PLU,-10.78333,-76.9,M,110057,155201,DIFERIDO
YAURICOCHA,PLU,-12.31478,-75.71209,M,112096,155450,DIFERIDO
AYAVIRI,PLU,-12.38208,-76.13672,M,112128,156104,DIFERIDO
CARANIA,PE,-12.3444,-75.87215,M,112133,156109,DIFERIDO
VILCA,PE,-12.11457,-75.82617,M,112135,156111,DIFERIDO
HUAÑEC,PLU,-12.29359,-76.13902,M,112127,156103,DIFERIDO
SAN PEDRO DE PILAS,PLU,-12.4548,-76.22559,M,112081,151212,DIFERIDO
TANTA,PE,-12.11667,-76.01667,M,112130,156106,DIFERIDO
AMAZONAS,CO,-3.76397,-73.25492,M,103057,000154,DIFERIDO
SANTA MARIA NANAY,HLM,-3.8891,-73.6961,H,240001,240110,DIFERIDO
MANITI,PE,-3.5203,-72.8409,M,103009,150201,DIFERIDO
TIMICURILLO,PLU,-3.5237,-73.0835,M,103011,150204,DIFERIDO
TIMICURILLO,HLM,-3.5237,-73.0834,H,240202,240202,DIFERIDO
BELLAVISTA,HLM,-3.4786,-73.068,H,240111,260102,DIFERIDO
BELLAVISTA,PLU,-3.4788,-73.068,M,103012,150205,DIFERIDO
LA LIBERTAD,PLU,-3.4863,-73.2337,M,103014,150207,DIFERIDO
LA LIBERTAD,HLM,-3.4863,-73.2339,H,240112,260201,DIFERIDO
SANTA CRUZ,PLU,-3.5169,-73.1526,M,103013,150206,DIFERIDO
SANTA CRUZ,HLM,-3.51725,-73.15411,H,240109,240109,DIFERIDO
SANTA MARIA DE NANAY,PLU,-3.8889,-73.6971,M,103030,152409,DIFERIDO
SANTA CLOTILDE,CO,-2.48757,-73.67919,M,102009,000177,DIFERIDO
SANTA CLOTILDE,HLM,-2.487,-73.679,H,240110,260101,DIFERIDO
SANTO TOMAS PUNCHANA,HLM,-3.69279,-73.25625,H,240304,240304,DIFERIDO
ENAPU PERU,HLM,-3.72722,-73.23694,H,240102,240101,DIFERIDO
YURIMAGUAS ENP,HLM,-5.898,-76.101,H,230602,230602,DIFERIDO
SHANUSI,CO,-6.067,-76.2505,M,100132,153315,DIFERIDO
LAGUNAS,PLU,-5.2194,-75.6661,M,100080,152304,DIFERIDO
BORJA,HLM,-4.47,-77.548,H,220107,220107,DIFERIDO
NAUTA,HLM,-4.5146,-73.5831,H,221402,221401,DIFERIDO
SAN REGIS,PE,-4.51301,-73.90751,M,104098,150212,DIFERIDO
SAN REGIS,HLM,-4.5132,-73.9076,H,220105,220105,DIFERIDO
SANTA RITA DE CASTILLA,PE,-4.5922,-74.3806,M,104065,152401,DIFERIDO
SANTA ROSA,PLU,-4.22636,-69.95629,M,104010,150209,DIFERIDO
SANTA ROSA,HLM,-4.2242,-69.9535,H,240108,240108,DIFERIDO
REQUENA,CO,-5.04308,-73.83612,M,105095,000280,DIFERIDO
REQUENA,HLM,-5.0411,-73.84,H,250101,250101,DIFERIDO
FLOR DE PUNGA,HLM,-5.4077,-74.1569,H,251100,231302,DIFERIDO
FLOR DE PUNGA,PE,-5.4055,-74.1591,M,105092,152405,DIFERIDO
TAMANCO,PLU,-5.7921,-74.289,M,105091,152403,DIFERIDO
BRETAÑA,PE,-5.2539,-74.3444,M,105090,152402,DIFERIDO
BAGAZAN,PE,-4.724,-73.5321,M,104067,152406,DIFERIDO
GENARO HERRERA,HLM,-4.902,-73.6715,H,251104,231303,DIFERIDO
CONTAMANA,CO,-7.3526,-75.0064,M,100034,000387,DIFERIDO
PAMPA UMALZO (TITIJONES),CO,-16.8439,-70.5494,M,116052,158309,DIFERIDO
TUMILACA,PLU,-17.1277,-70.8369,M,117031,158314,DIFERIDO
OTORA,HLG,-17.0073,-70.8536,H,214700,204812,DIFERIDO
OTORA,PLU,-17.0041,-70.8504,M,117024,158302,DIFERIDO
ICHUÑA,CO,-16.14109,-70.5427,M,100059,158310,DIFERIDO
MIRAFLORES,MAP,-5.17528,-80.61654,M,105100,000207,DIFERIDO
PORCULLA,PLU,-5.83964,-79.50572,M,100105,152132,DIFERIDO
HACIENDA SHUMAYA,PLU,-5.36681,-79.36056,M,105024,152128,DIFERIDO
TULUCE,PLU,-5.47718,-79.34742,M,105023,152127,DIFERIDO
HACIENDA BIGOTE,PLU,-5.3209,-79.7857,M,105015,152111,DIFERIDO
ALAMOR,PLU,-4.47749,-80.3979,M,104044,152153,DIFERIDO
ALAMOR,HLM,-4.47401,-80.39915,H,200322,200324,DIFERIDO
PANANGA,PLU,-4.51556,-80.73945,M,104014,152101,DIFERIDO
PROGRESO,CO,-14.6717,-70.3678,M,114040,000778,DIFERIDO
SAN GABAN,CO,-13.4609,-70.41,M,113119,156401,DIFERIDO
DESAGUADERO,CO,-16.56327,-69.03682,M,116060,000883,DIFERIDO
CALLACAME,PLU,-16.57225,-69.31697,M,116075,116075,DIFERIDO
CAPAZO,CO,-17.1827,-69.7391,M,117041,158326,DIFERIDO
COJATA,CO,-15.0118,-69.3612,M,115053,000827,DIFERIDO
RAMIS,PLU,-15.2558,-69.8739,M,270200,157733,DIFERIDO
TARACO,CO,-15.31167,-69.97247,M,115047,000816,DIFERIDO
SANTA LUCIA,CO,-15.6941,-70.5993,M,115140,000865,DIFERIDO
SANTA ROSA,CO,-14.6178,-70.79278,M,114047,000823,DIFERIDO
CHUQUIBAMBILLA,CP,-14.7879,-70.7285,M,114035,000764,DIFERIDO
ISLA SOTO,CO,-15.56221,-69.48898,M,100065,000817,DIFERIDO
JULIACA,CO,-15.4441,-70.2078,M,115138,007454,DIFERIDO
PUENTE ISLA CABANILLAS,HLM,-15.4718,-70.224,H,210406,210406,DIFERIDO
LAMPA,HLM,-15.4437,-70.2092,H,210405,210405,DIFERIDO
CUYO CUYO,CO,-14.4888,-69.55,M,114096,157418,DIFERIDO
LIMBANI,CO,-14.1397,-69.687,M,114049,000825,DIFERIDO
LIMBANI,HLG,-14.1481,-69.6902,H,260501,260501,DIFERIDO
TAMBOPATA,CO,-14.2252,-69.1593,M,114043,000790,DIFERIDO
TAHUACO - YUNGUYO,CO,-16.30783,-69.07472,M,116030,000882,DIFERIDO
ISLA SUANA,CO,-16.3299,-68.85034,M,116009,000822,DIFERIDO
DOS DE MAYO (J. OLAYA),CO,-7.4071,-76.4139,M,107069,153225,DIFERIDO
CUZCO-BIAVO,PLU,-7.2544,-76.4771,M,107095,153345,DIFERIDO
BIAVO,HLG,-7.25497,-76.47778,H,221804,221804,DIFERIDO
LA UNION,CO,-7.16319,-76.49275,M,107013,000384,DIFERIDO
NUEVO LIMA,CO,-7.09629,-76.47234,M,107089,153312,DIFERIDO
CUÑUMBUQUE,PLU,-6.5083,-76.48076,M,106094,153311,DIFERIDO
SHANAO,PLU,-6.41312,-76.60028,M,106115,153328,DIFERIDO
SHANAO,HLG,-6.41291,-76.60001,H,221802,221802,DIFERIDO
PACAYZAPA,CO,-6.2818,-76.7617,M,110127,110127,DIFERIDO
HUAYABAMBA,PLU,-7.2636,-76.7349,M,107101,153350,DIFERIDO
CAMPANILLA,CO,-7.48433,-76.65311,M,100019,003304,DIFERIDO
PICOTA,PLU,-6.9199,-76.3302,M,106095,153313,DIFERIDO
NARANJILLO,CO,-5.80964,-77.39319,M,105103,000219,DIFERIDO
PELEJO,CO,-6.21531,-75.8025,M,106112,153322,DIFERIDO
PUCALLPA - HUIMBAYOC,PLU,-6.45278,-75.84556,M,106110,153320,DIFERIDO
NAVARRO,CO,-6.37587,-75.73143,M,106018,000386,DIFERIDO
CUMBAZA,HLG,-6.4725,-76.382,H,221801,221801,DIFERIDO
SAN ANTONIO,CO,-6.41274,-76.4072,M,106096,153314,DIFERIDO
LAGUNA SAUCE,HLM,-6.6927,-76.2162,H,221806,221807,DIFERIDO
CANAL UCHUSUMA,HLM,-17.5807,-69.6264,H,215000,205206,DIFERIDO
PAUCARANI,CO,-17.53291,-69.78039,M,117043,158328,DIFERIDO
CAIRANI,CO,-17.28121,-70.36269,M,117030,158313,DIFERIDO
ARICOTA,CO,-17.32913,-70.23731,M,117054,117054,DIFERIDO
CHUAPALCA ALTERNATIVA ALTA,HLM,-17.28727,-69.6435,M,117060,117060,DIFERIDO
CHUAPALCA,HLM,-17.2981,-69.6468,H,270900,211706,DIFERIDO
LA FRONTERA,CO,-17.3824,-69.4864,M,117049,158332,DIFERIDO
CHUAPALCA,CO,-17.3088,-69.6618,M,117013,000860,DIFERIDO
TALABAYA,PE,-17.5526,-69.9868,M,117039,158323,DIFERIDO
VILACOTA,CO,-17.07906,-70.04302,M,117014,000861,DIFERIDO
VILACOTA,HLM,-17.0786,-70.0424,H,211705,211707,DIFERIDO
CABO INGA,CO,-3.97594,-80.40182,M,103043,000139,DIFERIDO
EL SALTO,CO,-3.45171,-80.2802,M,103041,000135,DIFERIDO
MATAPALO,PLU,-3.68277,-80.19857,M,103008,150112,DIFERIDO
PUCALLPA,CP,-8.41323,-74.57185,M,108021,000449,DIFERIDO
EL BOQUERON,CO,-8.5825,-74.86611,M,109090,109090,DIFERIDO
EL MARONAL,CP,-8.44999,-75.09681,M,108027,000459,DIFERIDO
HUANCANO,CO,-13.60118,-75.62102,M,113009,000639,DIFERIDO
ACOPALCA,CO,-11.9873,-75.1035,M,111174,111174,DIFERIDO
PUENTE BREÑA,PLU,-12.0521,-75.2404,M,112263,112263,DIFERIDO
RIO TULUMAYO,PLU,-11.2091,-75.3348,M,111281,111281,DIFERIDO
PUERTO OCOPA,CO,-11.1467,-74.3051,M,111039,000572,DIFERIDO
RIO PALLANGA,HLM,-11.1865,-76.32569,H,230801,230902,DIFERIDO
RUMICHACA,HLM,-11.69886,-76.10639,H,230803,230908,DIFERIDO
YAULI,PLU,-11.66667,-76.08333,M,111099,155235,DIFERIDO
JULCAN,PLU,-8.04229,-78.48607,M,108043,154101,DIFERIDO
TALLA (GUADALUPE),CP,-7.28005,-79.4191,M,100136,000325,DIFERIDO
HUANGACOCHA,PLU,-7.9375,-78.0681,M,107092,153327,DIFERIDO
LAGUNA HUANGACOCHA,HLM,-7.9325,-78.06705,H,220204,220204,DIFERIDO
MOLLEPATA,PE,-8.19137,-77.95397,M,108046,154106,DIFERIDO
HUACAMARCANGA,PE,-8.1221,-78.2937,M,108048,154112,DIFERIDO
HUACAMARCANGA,HLM,-8.1081,-78.2876,H,201717,201717,DIFERIDO
QUIRUVILCA,PLU,-8.00422,-78.30791,M,108044,154102,DIFERIDO
TINAJONES,CP,-6.65493,-79.4279,M,106049,000335,DIFERIDO
INCAHUASI,CP,-6.23389,-79.31806,M,106037,000307,DIFERIDO
CUEVA BLANCA,PLU,-6.1313,-79.4045,M,106060,153102,DIFERIDO
PUCHACA,CO,-6.37361,-79.46951,M,106120,003114,DIFERIDO
PUCHACA,HLG,-6.37317,-79.46697,H,200801,200802,DIFERIDO
CERRO DE ARENA,CO,-5.92461,-80.20463,M,105122,105122,DIFERIDO
PASAJE SUR,CO,-5.91741,-79.97184,M,105121,105121,DIFERIDO
CUTERVO,CO,-6.37964,-78.80512,M,106057,,REAL
LLAUCANO CORELLAMA,HLG,-6.68656,-78.51823,H,221106,,REAL
BAMBAMARCA,CP,-6.67655,-78.51834,M,100015,,REAL
JAEN,CP,-5.67664,-78.77416,M,105067,,REAL
SAN IGNACIO,CO,-5.14708,-78.99512,M,105058,,REAL
CHIRINOS,CO,-5.3085,-78.89759,M,105074,,REAL
NAMBALLE,CO,-4.99953,-79.08862,M,105107,,REAL
TABACONAS,CO,-5.31567,-79.2849,M,105056,,REAL
SAN MARCOS,CO,-7.32249,-78.1727,M,107006,,REAL
SONDOR-MATARA,CO,-7.23687,-78.21262,M,107038,,REAL
SAN MIGUEL,CO,-6.99684,-78.85308,M,106038,,REAL
QUILCATE,CO,-6.82275,-78.744,M,106039,,REAL
LLAPA,CO,-6.97833,-78.81119,M,106019,,REAL
NIEPOS,CO,-6.92511,-79.12902,M,100092,,REAL
SAN PABLO,CO,-7.11775,-78.83083,M,107036,,REAL
SANTA CRUZ,CO,-6.61657,-78.94761,M,106056,,REAL
UDIMA,CO,-6.81474,-79.09377,M,106068,,REAL
GRANJA KAYRA,MAP,-13.55675,-71.87517,M,100044,,REAL
ACOMAYO,CO,-13.92161,-71.68388,M,113038,,REAL
POMACANCHI,CO,-14.02781,-71.57258,M,114046,,REAL
PUENTE CUNYAC,HLM,-13.563,-72.5752,H,230503,,REAL
ANTA ANCACHURO,CO,-13.47242,-72.21876,M,113035,,REAL
PISAC,CO,-13.41951,-71.85087,M,100101,,REAL
PISAC,HLM,-13.4226,-71.8539,H,250303,,REAL
QUEBRADA YANATILE,CO,-12.6788,-72.2785,M,112154,,REAL
SICUANI,CO,-14.23736,-71.2367,M,114033,,REAL
SALCCA,HLM,-14.16963,-71.23172,H,250308,,REAL
SANTO TOMAS,CO,-14.39878,-72.08774,M,114030,,REAL
PUENTE COLCA,HLM,-14.39994,-72.0881,H,230502,,REAL
QUILLABAMBA,CP,-12.85645,-72.69174,M,112036,,REAL
PARURO,CO,-13.76698,-71.8447,M,113037,,REAL
PAUCARTAMBO,HLG,-13.3177,-71.5974,H,250405,,REAL
PAUCARTAMBO,CO,-13.30347,-71.59668,M,100100,,REAL
CHACLLABAMBA,HLM,-13.10677,-71.7203,H,250301,,REAL
CHALLABAMBA,CO,-13.21754,-71.64938,M,100024,,REAL
COLQUEPATA,CO,-13.36313,-71.67336,M,113116,,REAL
CAY CAY,CO,-13.59999,-71.69581,M,113122,,REAL
QUINCEMIL,CO,-13.22893,-70.7544,M,100114,,REAL
CCATCCA,CO,-13.60988,-71.5601,M,113041,,REAL
URUBAMBA,CP,-13.30517,-72.12455,M,113034,,REAL
MACHU PICCHU,CO,-13.16655,-72.54585,M,113031,,REAL
PILCHACA,CO,-12.39939,-75.08412,M,112060,,REAL
ACOBAMBA,CO,-12.84361,-74.5616,M,112067,,REAL
LIRCAY,CO,-12.9815,-74.7181,M,112065,,REAL
CHALLACA,HLM,-13.78333,-75.4,H,213502,,REAL
ACOSTAMBO,CO,-12.36079,-75.05725,M,112051,,REAL
PAMPAS,CO,-12.40203,-74.88414,M,112012,,REAL
COLCABAMBA,CO,-12.415,-74.6835,M,112163,,REAL
SALCABAMBA,CO,-12.204,-74.7794,M,100120,,REAL
CANCHAN,CO,-9.92095,-76.30962,M,100020,,REAL
PUENTE HIGUERAS,HLM,-9.9222,-76.30938,H,221811,,REAL
HUANUCO,CP,-9.95201,-76.24856,M,109003,,REAL
SAN RAFAEL,HLM,-10.3399,-76.1824,H,221309,,REAL
SAN RAFAEL,CO,-10.32926,-76.17658,M,110025,,REAL
DOS DE MAYO,CO,-9.71694,-76.77361,M,109077,,REAL
TINGO MARIA,CP,-9.31016,-76.00049,M,109027,,REAL
LA DIVISORIA,CO,-9.20091,-75.81393,M,108025,,REAL
AUCAYACU,CO,-8.92987,-76.11171,M,108033,,REAL
TULUMAYO,MAP,-9.14706,-76.00944,M,109028,,REAL
CHAGLLA,CO,-9.85008,-75.90706,M,109021,,REAL
PUERTO INCA,HLM,-9.36694,-74.95028,H,231101,,REAL
PUERTO INCA,CO,-9.3851,-74.96376,M,109032,,REAL
TOURNAVISTA,CO,-8.92749,-74.70882,M,108034,,REAL
JACAS CHICO,CO,-9.88474,-76.50094,M,109022,,REAL
TACAMA,CO,-13.99978,-75.72052,M,113058,,REAL
OCUCAJE,CO,-14.37844,-75.68208,M,114020,,REAL
SAN CAMILO,MAP,-14.07331,-75.71101,M,114008,,REAL
LOS MOLINOS (ALEJANDRO PLAZA GARCIA),HLG,-13.92475,-75.67869,H,213500,,REAL
HUAMANI,CO,-13.843,-75.60704,M,113010,,REAL
FONAGRO (CHINCHA),MAP,-13.45781,-76.13425,M,100043,,REAL
SAN JUAN DE YANAC,CO,-13.21058,-75.78697,M,113081,,REAL
SAN PEDRO DE HUACARPANA,CO,-13.0479,-75.6464,M,113061,,REAL
HUALLPOCA,HLG,-14.63201,-74.95588,H,230712,,REAL
COPARA,CP,-14.97501,-74.89082,M,114018,,REAL
PALPA,CO,-14.54939,-75.18926,M,114021,,REAL
IMATA,CO,-15.84266,-71.09062,M,115029,,REAL
SIBAYO,CO,-15.4892,-71.45696,M,115024,,REAL
CHUQUIBAMBA,CO,-15.84602,-72.65065,M,115020,,REAL
SALAMANCA,CO,-15.50294,-72.83202,M,115043,,REAL
LA PASCANA,HLG,-16.99936,-71.63879,H,204905,,REAL
PAMPA BLANCA,CP,-17.0716,-71.7245,M,117005,,REAL
COTAHUASI,CO,-15.21134,-72.89325,M,115019,,REAL
MARCELINO SERNA (PAMPAS),HLG,-13.43453,-73.82791,H,251001,,REAL
WAYLLAPAMPA,CO,-13.0765,-74.21651,M,112069,,REAL
LA QUINUA,CO,-13.05548,-74.14159,M,113021,,REAL
SAN PEDRO DE CACHI,CO,-13.08742,-74.39067,M,100127,,REAL
PUQUIO,CO,-14.69928,-74.1316,M,114023,,REAL
HUAC-HUAS,CO,-14.1324,-74.941,M,114055,,REAL
LLAUTA,HLG,-14.23998,-74.92135,H,213600,,REAL
CORACORA,CO,-15.01194,-73.77945,M,115015,,REAL
PAUZA,CO,-15.2753,-73.3411,M,115017,,REAL
PAUCARAY,CO,-14.0439,-73.6386,M,114044,,REAL
HUANCAPI,CO,-13.749,-74.0681,M,113022,,REAL
VILCASHUAMAN,CO,-13.66882,-73.95238,M,113100,,REAL
MASHCON,HLG,-7.165,-78.47833,H,220213,,REAL
GRANJA PORCON,CO,-7.03753,-78.6334,M,107002,,REAL
AUGUSTO WEBERBAUER,MAP,-7.1675,-78.49309,M,107028,,REAL
ASUNCION,CO,-7.32604,-78.51582,M,107018,,REAL
COSPAN,CO,-7.42857,-78.54106,M,100037,,REAL
LA ENCAÑADA,CO,-7.12327,-78.33314,M,107093,,REAL
JESUS TUNEL,HLG,-7.22064,-78.40376,H,220205,,REAL
JESUS,CO,-7.2457,-78.38841,M,107016,,REAL
NAMORA BOCATOMA,HLG,-7.24262,-78.29472,H,220206,,REAL
MAGDALENA,CO,-7.25346,-78.65261,M,107017,,REAL
NAMORA,CO,-7.2006,-78.32782,M,107037,,REAL
SAN JUAN,CO,-7.29756,-78.49106,M,107005,,REAL
CAJABAMBA,CO,-7.62166,-78.05131,M,107008,,REAL
CACHACHI,PE,-7.45106,-78.26855,M,107068,,REAL
PUENTE CRISNEJAS,HLM,-7.46354,-78.11313,H,220201,,REAL
CELENDIN,CO,-6.85292,-78.14485,M,106010,,REAL
BALZAS,HLM,-6.84465,-78.03024,H,221303,,REAL
CHOTA,CO,-6.54713,-78.64863,M,106034,,REAL
COCHABAMBA,CO,-6.46009,-78.8886,M,106058,,REAL
HUAMBOS,CP,-6.45368,-78.96315,M,106054,,REAL
CHOTANO LAJAS,HLG,-6.55972,-78.74111,H,220611,,REAL
LLAMA,CO,-6.51443,-79.12262,M,106053,,REAL
TOCMOCHE,CO,-6.4101,-79.3557,M,106061,,REAL
CONTUMAZA,CO,-7.36521,-78.82273,M,107052,,REAL
PUENTE CHILETE,HLG,-7.21969,-78.83799,H,201207,,REAL
CHILETE,PLU,-7.21968,-78.83799,M,107058,,REAL
SAN BENITO,CO,-7.42819,-78.92673,M,107057,,REAL
HUARMEY,CO,-10.06812,-78.16232,M,110016,,REAL
MALVAS,CO,-9.92723,-77.65519,M,109038,,REAL
PISCOBAMBA II,CO,-8.87045,-77.35072,M,108103,,REAL
CABANA,CP,-8.39058,-78.00461,M,108064,,REAL
POMABAMBA,CO,-8.8217,-77.45733,M,108017,,REAL
RECUAY,CO,-9.72919,-77.45365,M,109017,,REAL
CHACHAPOYAS,CO,-6.2083,-77.86712,M,106011,,REAL
ARAMANGO,CO,-5.41994,-78.43553,M,105075,,REAL
JAZAN,CO,-5.94485,-77.97569,M,105079,,REAL
LOS NARANJOS,HLG,-5.75568,-78.43154,H,221501,,REAL
BAGUA CHICA,CP,-5.66148,-78.53396,M,105068,,REAL
JAMALCA,CO,-5.8927,-78.2339,M,105042,,REAL
CAJAMARQUILLA,CO,-9.63204,-77.74136,M,109046,,REAL
PARIACOTO,CO,-9.55239,-77.88761,M,109040,,REAL
AIJA,CO,-9.78165,-77.60674,M,109016,,REAL
CHIQUIAN,CO,-10.14763,-77.15949,M,110018,,REAL
CHAVIN,CO,-9.58598,-77.17526,M,109019,,REAL
CHAMANA,CO,-10.20739,-77.55872,M,110039,,REAL
SIHUAS,CO,-8.56667,-77.65,M,108047,,REAL
YUNGAY,CO,-9.14189,-77.74998,M,109018,,REAL
CURAHUASI,CP,-13.55261,-72.73488,M,113029,,REAL
GRANJA SAN ANTONIO,MAP,-13.6049,-72.8569,M,113225,,REAL
ANDAHUAYLAS,CO,-13.64863,-73.36679,M,113025,,REAL
AYMARAES,CO,-14.29056,-73.25168,M,114117,,REAL
TAMBOBAMBA,CO,-13.94492,-72.17522,M,113059,,REAL
PAMPAS,CO,-13.43488,-73.82427,M,113138,,REAL
CURPAHUASI,CO,-14.0628,-72.6669,M,114108,,REAL
LA PAMPILLA,MAP,-16.4138,-71.53453,M,116017,,REAL
CHIGUATA,CO,-16.40644,-71.40913,M,116020,,REAL
HUASACACHE,CO,-16.45774,-71.56635,M,116003,,REAL
TINGO GRANDE,HLG,-16.45992,-71.57431,H,204708,,REAL
PUENTE DEL DIABLO,HLG,-16.42679,-71.67503,H,204707,,REAL
LA JOYA,MAP,-16.58359,-71.92464,M,116005,,REAL
HACIENDA PAMPATA,HLG,-16.54193,-72.69957,H,204621,,REAL
OCOÑA,HLG,-16.427,-73.1145,H,204504,,REAL
CAMANA,CO,-16.64034,-72.70156,M,116013,,REAL
CARAVELI,CO,-15.77568,-73.36259,M,115018,,REAL
PUNTA ATICO,CO,-16.2317,-73.6964,M,116011,,REAL
CHAPARRA,CO,-15.74765,-73.87089,M,100026,,REAL
LOMAS,CO,-15.57119,-74.8503,M,115133,,REAL
HUATIAPA,HLG,-16.00806,-72.48355,H,204617,,REAL
APLAO,CO,-16.07288,-72.49226,M,116014,,REAL
ANDAHUA,CO,-15.5009,-72.3551,M,115085,,REAL
CHOCO,CO,-15.5771,-72.1296,M,115089,,REAL
MACHAHUAY,CO,-15.65321,-72.50322,M,115129,,REAL
ORCOPAMPA,CO,-15.2639,-72.341,M,115086,,REAL
PAMPACOLCA,CO,-15.7167,-72.5683,M,115021,,REAL
CHIVAY,CO,-15.64163,-71.60169,M,115025,,REAL
CABANACONDE,CO,-15.6226,-71.97409,M,115041,,REAL
CAYLLOMA,CO,-15.18882,-71.77019,M,115022,,REAL
HUAMBO,CO,-15.73201,-72.10693,M,115090,,REAL
HUANCA,CO,-16.03458,-71.88108,M,116058,,REAL
PARAMONGA,CP,-10.67398,-77.82178,M,110015,,REAL
CAJATAMBO,CO,-10.47788,-76.98971,M,110019,,REAL
CANTA,CP,-11.47121,-76.62569,M,111026,,REAL
OBRAJILLO,HLG,-11.45293,-76.62217,H,202802,,REAL
PUENTE MAGDALENA,HLG,-11.69463,-76.83719,H,111151,,REAL
LA CAPILLA,HLG,-12.52194,-76.49637,H,203101,,REAL
SOCSI CAÑETE,PE,-13.03051,-76.20027,M,113140,,REAL
SOCSI,HLG,-13.0283,-76.19453,H,203302,,REAL
PACARAN,CO,-12.86689,-76.05793,M,112058,,REAL
PACARAN,HLM,-12.86096,-76.05479,H,203303,,REAL
HUAYAN,CO,-11.45281,-77.122,M,111022,,REAL
SANTO DOMINGO,HLG,-11.37009,-77.02823,H,202701,,REAL
PAMPA DE MAJES,MAP,-16.3357,-72.1525,M,116006,,REAL
HUANCAVELICA,CO,-12.7715,-75.0124,M,112061,,REAL
PUERTO ALMENDRA,CO,-3.8286,-73.377,M,103046,,REAL
LA YARADA,CP,-18.2107,-70.5259,M,118002,,REAL
MATUCANA,CO,-11.83913,-76.37792,M,111027,,REAL
ANTAPUCRO,HLG,-12.0314,-76.62437,H,203003,,REAL
RIO BLANCO,HLG,-11.7345,-76.25938,H,202904,,REAL
HUAROCHIRI,CO,-12.13886,-76.23429,M,112055,,REAL
SAN LAZARO DE ESCOMARCA,CO,-12.18088,-76.35207,M,112126,,REAL
SAN MATEO DE HUANCHOR,PLU,-11.76017,-76.301,M,111175,,REAL
SAN MATEO,HLG,-11.76012,-76.30111,H,202905,,REAL
SANTA EULALIA,PLU,-11.92,-76.66664,M,111086,,REAL
SANTA EULALIA,HLM,-11.91984,-76.66678,H,202930,,REAL
UNJF SANCHEZ CARRION - HUACHO,CP,-11.12386,-77.60603,M,111163,,REAL
LOMAS DE LACHAY,CO,-11.36014,-77.36839,M,111018,,REAL
ALCANTARILLA,MAP,-11.06068,-77.55011,M,111004,,REAL
PICOY,CO,-10.92162,-76.73701,M,110021,,REAL
PICOY,HLG,-10.92164,-76.7367,H,202607,,REAL
SAYAN,HLM,-11.13476,-77.19832,H,212301,,REAL
CAMAY,CO,-10.91294,-77.6489,M,110017,,REAL
YAUYOS,CO,-12.49173,-75.91039,M,112057,,REAL
HUANGASCAR,PE,-12.89858,-75.83365,M,112134,,REAL
TAMSHIYACU,CO,-4.00356,-73.16112,M,103049,,REAL
TAMSHIYACU,HLM,-4.00316,-73.1614,H,240103,,REAL
FRANCISCO ORELLANA,CO,-3.42333,-72.76667,M,103024,,REAL
MAZAN,CP,-3.48817,-73.08182,M,103044,,REAL
PUNCHANA,PE,-3.6903,-73.2556,M,103015,,REAL
SAN RAMON,CP,-5.9356,-76.1181,M,100128,,REAL
SAN LORENZO,CO,-4.82954,-76.55477,M,104057,,REAL
SAN LORENZO,HLG,-4.8322,-76.5554,H,220108,,REAL
LAGUNAS,HLM,-5.2171,-75.6679,H,230603,,REAL
NAUTA,CO,-4.51336,-73.58375,M,104056,,REAL
CABALLOCOCHA,CO,-3.9112,-70.5119,M,103031,,REAL
PEBAS,CO,-3.3188,-71.8588,M,103054,,REAL
GENARO HERRERA,CP,-4.91003,-73.66944,M,104071,,REAL
PUERTO MALDONADO,CP,-12.5873,-69.2088,M,100109,,REAL
IÑAPARI,CO,-10.95589,-69.578,M,110129,,REAL
MOQUEGUA,CP,-17.17875,-70.93269,M,117002,,REAL
CARUMAS,CO,-16.8115,-70.6954,M,116025,,REAL
CALACOA,CO,-16.73988,-70.68765,M,116051,,REAL
YACANGO,CO,-17.09078,-70.86699,M,100150,,REAL
TUMILACA,HLG,-17.12838,-70.83689,H,204804,,REAL
OMATE,CO,-16.67531,-70.97925,M,116023,,REAL
PUQUINA,CO,-16.62978,-71.18476,M,116021,,REAL
QUINISTAQUILLAS,CO,-16.74971,-70.87858,M,116049,,REAL
UBINAS,CO,-16.3888,-70.8541,M,100142,,REAL
PUNTA COLES,CO,-17.69862,-71.37331,M,117008,,REAL
ILO,CO,-17.62381,-71.27188,M,117007,,REAL
CERRO DE PASCO,CO,-10.69341,-76.26421,M,110037,,REAL
YANAHUANCA,CO,-10.4896,-76.5129,M,110007,,REAL
OXAPAMPA,CO,-10.5642,-75.4184,M,110028,,REAL
POZUZO,CO,-10.0868,-75.5462,M,110027,,REAL
SAN MIGUEL,MAP,-5.2462,-80.68436,M,105063,,REAL
PARTIDOR,CO,-4.73197,-80.27982,M,104084,,REAL
AYABACA,CP,-4.63776,-79.71077,M,104058,,REAL
SAUSAL DE CULUCAN,CO,-4.75238,-79.75792,M,104059,,REAL
ALTO DE POCLUS,CP,-4.9169,-79.89047,M,104097,,REAL
SAPILLICA,PLU,-4.77817,-79.98178,M,104019,,REAL
HUANCABAMBA,CP,-5.24681,-79.45399,M,105055,,REAL
SALALA,CP,-5.11153,-79.46349,M,105096,,REAL
HUARMACA,CO,-5.56479,-79.51975,M,105064,,REAL
SONDORILLO,CO,-5.3398,-79.43137,M,105022,,REAL
CHULUCANAS,CO,-5.10843,-80.16956,M,105070,,REAL
CHALACO,CP,-5.03865,-79.79168,M,105016,,REAL
EL VIRREY,PLU,-5.5337,-79.98233,M,105013,,REAL
SAN PEDRO,PLU,-5.07954,-80.01621,M,100126,,REAL
SAN PEDRO,HLG,-5.0796,-80.01624,H,200415,,REAL
MORROPON,CO,-5.19465,-79.97107,M,105106,,REAL
MALACASI,CP,-5.33977,-79.85794,M,108007,,REAL
SANTO DOMINGO,CO,-5.03825,-79.87049,M,100131,,REAL
LA ESPERANZA,CP,-4.92114,-81.05969,M,104090,,REAL
LANCONES,CO,-4.64288,-80.54717,M,104016,,REAL
MALLARES,CP,-4.85574,-80.73556,M,104079,,REAL
EL ALTO,CO,-4.26198,-81.21815,M,104080,,REAL
CHUSIS,CO,-5.52756,-80.81275,M,105105,,REAL
BERNAL,CO,-5.4545,-80.74262,M,105012,,REAL
PUNO,CP,-15.82625,-70.01208,M,100110,,REAL
LOS UROS,CO,-15.82039,-69.97413,M,100088,,REAL
RINCON DE LA CRUZ,CO,-15.99017,-69.80961,M,115052,,REAL
ISLA TAQUILE,CO,-15.77019,-69.69107,M,115049,,REAL
CAPACHICA,CO,-15.61344,-69.84222,M,100021,,REAL
MAÑAZO,CO,-15.79944,-70.33949,M,115051,,REAL
LARAQUERI,CO,-16.13599,-70.04587,M,116033,,REAL
AZANGARO,CO,-14.9172,-70.19046,M,114041,,REAL
PUENTE CARRETERA AZANGARO,HLG,-14.91975,-70.18936,H,210102,,REAL
ARAPA,CO,-15.1786,-70.109,M,115035,,REAL
MUÑANI,CO,-14.76694,-69.95181,M,114042,,REAL
MACUSANI,CO,-14.06674,-70.42205,M,114039,,REAL
CRUCERO,CO,-14.36419,-70.02592,M,114058,,REAL
JULI,CO,-16.20378,-69.45992,M,116061,,REAL
PUENTE DESAGUADERO,HLG,-16.5638,-69.0363,H,270700,,REAL
PUENTE LOROCO CALLACAME,HLG,-16.57065,-69.32278,H,210502,,REAL
PIZACOMA,CO,-16.9043,-69.3695,M,116029,,REAL
PUENTE ZAPATILLA,HLM,-16.1386,-69.5787,H,270503,,REAL
PUENTE CARRETERA ILAVE,HLG,-16.0882,-69.6317,H,210301,,REAL
ILAVE,CO,-16.05994,-69.64039,M,116027,,REAL
MAZO CRUZ,CO,-16.73888,-69.71544,M,116026,,REAL
HUANCANE,CO,-15.20687,-69.7583,M,115037,,REAL
PUENTE HUANCANE,HLG,-15.21588,-69.79262,H,210201,,REAL
PUENTE RAMIS,HLG,-15.2553,-69.8738,H,210101,,REAL
LAMPA,CO,-15.36109,-70.37415,M,100081,,REAL
PAMPAHUTA,CO,-15.4837,-70.676,M,115027,,REAL
PUCARA,CO,-15.04567,-70.36663,M,115046,,REAL
RIO VERDE,HLG,-15.68427,-70.60002,H,270300,,REAL
CRUCERO ALTO,CO,-15.7643,-70.9113,M,115044,,REAL
AYAVIRI,CO,-14.8688,-70.5916,M,114038,,REAL
LLALLY,CO,-14.95286,-70.88052,M,114034,,REAL
HUARAYA MOHO,CO,-15.3881,-69.4842,M,115038,,REAL
PUTINA,CO,-14.921,-69.8757,M,114093,,REAL
ANANEA,CO,-14.6763,-69.5339,M,114050,,REAL
PUENTE COATA-UNOCOLLA,HLG,-15.45085,-70.19133,H,210407,,REAL
CABANILLAS,CO,-15.63911,-70.34661,M,115033,,REAL
MOYOBAMBA,CO,-6.04481,-76.96821,M,106014,,REAL
JEPELACIO,CO,-6.11274,-76.9076,M,106088,,REAL
SORITOR,CO,-6.14382,-77.09709,M,106083,,REAL
BELLAVISTA,CO,-7.05518,-76.55835,M,107012,,REAL
SAN PABLO,CO,-6.80955,-76.57624,M,106091,,REAL
ALAO,CO,-6.51699,-76.73806,M,106092,,REAL
SAPOSOA,CO,-6.94313,-76.76823,M,106032,,REAL
LAMAS,CO,-6.41874,-76.52794,M,106016,,REAL
PONGO DE CAYNARACHI,CO,-6.33047,-76.28174,M,100104,,REAL
TABALOSOS,CO,-6.39533,-76.62534,M,106043,,REAL
HUAYABAMBA,HLG,-7.2687,-76.737,H,230504,,REAL
PACHIZA,CO,-7.29321,-76.77091,M,107010,,REAL
PILLUANA,CO,-6.77632,-76.29054,M,106098,,REAL
SHAMBOYACU,PLU,-7.0223,-76.1291,M,107091,,REAL
TINGO DE PONAZA,CO,-6.93721,-76.25267,M,106119,,REAL
RIOJA,CO,-6.04726,-77.17196,M,106013,,REAL
TARAPOTO,CO,-6.47596,-76.3704,M,100138,,REAL
CHAZUTA,HLM,-6.569,-76.1138,H,230601,,REAL
CHAZUTA,CO,-6.57118,-76.13151,M,106101,,REAL
EL PORVENIR,MAP,-6.58903,-76.31825,M,106040,,REAL
SAUCE,CO,-6.69432,-76.20099,M,106017,,REAL
PUENTE TOCACHE,HLG,-8.18475,-76.50789,H,230700,,REAL
TANANTA,CP,-8.11524,-76.58049,M,100137,,REAL
JORGE BASADRE,MAP,-18.02689,-70.25153,M,118004,,REAL
CALANA,CP,-17.97458,-70.1932,M,117003,,REAL
CORUCA,HLG,-17.63312,-70.45456,H,214901,,REAL
SAMA GRANDE,CO,-17.78758,-70.48962,M,117018,,REAL
CALIENTES,CO,-17.884,-70.1425,M,117015,,REAL
BOCATOMA,CO,-17.5802,-69.62672,M,100007,,REAL
PALCA,CO,-17.77795,-69.95864,M,117037,,REAL
CANDARAVE,CO,-17.26776,-70.25537,M,117019,,REAL
LOCUMBA,HLM,-17.6179,-70.761,H,205010,,REAL
ILABAYA,CO,-17.41783,-70.51281,M,117016,,REAL
ITE,CO,-17.86008,-70.95169,M,117012,,REAL
SUSAPAYA,CO,-17.34771,-70.13472,M,117033,,REAL
PUERTO PIZARRO,CO,-3.5038,-80.39504,M,103038,,REAL
LA CRUZ,CP,-3.62829,-80.56927,M,100072,,REAL
EL TIGRE,PLU,-3.80233,-80.45667,M,103016,,REAL
EL TIGRE,HLG,-3.76848,-80.45685,H,200202,,REAL
RICA PLAYA,CO,-3.8119,-80.50546,M,103036,,REAL
CAÑAVERAL,CO,-3.9391,-80.65058,M,103042,,REAL
PAPAYAL,CO,-3.56732,-80.23324,M,103040,,REAL
AGUAYTIA,CO,-9.0423,-75.50632,M,108028,,REAL
PUENTE AGUAYTIA,HLG,-9.03738,-75.50449,H,231201,,REAL
SAN ALEJANDRO,CO,-8.83444,-75.21639,M,100121,,REAL
SAN ALEJANDRO,HLM,-8.83091,-75.21281,H,250103,,REAL
RIO GRANDE,CO,-14.52648,-75.21306,M,114006,,REAL
PAMPA BLANCA,PE,-14.23731,-75.10407,M,114066,,REAL
HACIENDA BERNALES,CO,-13.74114,-75.96641,M,100046,,REAL
SANTA ANA,MAP,-12.00955,-75.22158,M,112083,,REAL
PUENTE BREÑA,HLG,-12.05216,-75.24051,H,230931,,REAL
VIQUES,CO,-12.15603,-75.2283,M,112037,,REAL
RUNATULLO,CO,-11.61812,-75.01224,M,100119,,REAL
JAUJA,CO,-11.7479,-75.1301,M,111005,,REAL
COMAS,CO,-11.74794,-75.13012,M,111031,,REAL
INGENIO,CO,-11.87521,-75.29665,M,111097,,REAL
PICHANAKI,CO,-10.93352,-74.86681,M,110008,,REAL
RIO TULUMAYO,HLM,-11.2091,-75.3348,H,250501,,REAL
RICRAN,CO,-11.54,-75.5273,M,111095,,REAL
JUNIN,CO,-11.14328,-75.98878,M,111583,,REAL
SATIPO,CO,-11.2247,-74.6087,M,111038,,REAL
TARMA,CO,-11.3967,-75.6899,M,111029,,REAL
HUASAHUASI,CO,-11.2677,-75.6391,M,111030,,REAL
MARCAPOMACOCHA,CO,-11.4044,-76.32487,M,111028,,REAL
YANTAC,CO,-11.34583,-76.40453,M,111076,,REAL
LA OROYA,CO,-11.57177,-75.95762,M,111046,,REAL
HUAYAO,CP,-12.0402,-75.32049,M,112056,,REAL
SAN JUAN DE JARPA,CO,-12.12454,-75.43178,M,112028,,REAL
LAIVE,CO,-12.25229,-75.36053,M,112059,,REAL
TRUJILLO,CO,-8.11203,-78.9851,M,108068,,REAL
CHERREPE,CO,-7.11887,-79.56118,M,100028,,REAL
CALLANCAS,CO,-7.76747,-78.47727,M,107054,,REAL
SALPO,CO,-8.00535,-78.6071,M,108001,,REAL
HUAMACHUCO,CO,-7.81916,-78.04013,M,107009,,REAL
CACHICADAN,CO,-8.09184,-78.14938,M,108045,,REAL
REQUE,CO,-6.88613,-79.8355,M,106046,,REAL
OYOTUN,CO,-6.86394,-79.32062,M,106109,,REAL
SIPAN,CO,-6.80141,-79.60002,M,106036,,REAL
CAYALTI,CP,-6.8808,-79.547,M,106042,,REAL
JAYANCA,CO,-6.33159,-79.76869,M,106047,,REAL
PASABAR,CP,-5.83722,-79.81908,M,105076,,REAL
LAMBAYEQUE,CP,-6.73438,-79.90894,M,106108,,REAL
CAMPO DE MARTE,CP,-12.07053,-77.04317,M,112171,,REAL
CHOSICA,PLU,-11.92986,-76.68975,M,111060,,REAL
CHOSICA,HLG,-11.92983,-76.68973,H,202906,,REAL
ÑAÑA,CO,-11.98744,-76.84194,M,111023,,REAL
PUENTE HUACHIPA,HLM,-12.01281,-76.89441,H,202910,,REAL
YONAN GORE,EHA,-7.25592,-79.09909,H,4726E508,,AUTOMATICA
CUTERVO GORE,EMA,-6.37914,-78.81339,M,4726A602,,AUTOMATICA
TUNEL CHOTANO,EHMA,-6.54049,-78.78432,H,47E1F02E,,AUTOMATICA
CUMBA,EHA,-5.94135,-78.66413,H,472B3006,,AUTOMATICA
BAMBAMARCA M,EMA,-6.67981,-78.52346,M,472680EE,,AUTOMATICA
BAMBAMARCA H,EHA,-6.66975,-78.54119,H,4726D092,,AUTOMATICA
CHUGUR,EMA,-6.66878,-78.738,M,4727F484,,AUTOMATICA
JAEN,EMA,-5.67667,-78.77418,M,47269398,,AUTOMATICA
SAUZAL,EHMA,-5.77168,-79.39769,H,105136,,AUTOMATICA
HUALLAPE,EHA,-5.45077,-78.69579,H,472A571A,,AUTOMATICA
SAN IGNACIO,EMA,-5.14422,-78.99989,M,4726706A,,AUTOMATICA
SAN MARCOS,EAMA,-7.32249,-78.17269,M,4725E206,,AUTOMATICA
TONGOD,EHMA,-6.74456,-78.81392,H,47E207A4,,AUTOMATICA
CAÑAD,EHMA,-6.64934,-78.99733,H,47E1C5B4,,AUTOMATICA
CIRATO,EHMA,-6.65583,-79.07384,H,4724D566,,AUTOMATICA
PUENTE AMBAN,EHMA,-6.58271,-78.91262,H,47E1E358,,AUTOMATICA
CHANCAY BAÑOS,EMA,-6.57489,-78.86721,M,47E3055E,,AUTOMATICA
CALCA,EMA,-13.33333,-71.95524,M,472976F8,,AUTOMATICA
NUEVO PISAC,EHMA,-13.42264,-71.85388,M,472A6280,,AUTOMATICA
PAYAPUNKU,EAMA,-14.4261,-71.28145,M,114126,,AUTOMATICA
SICUANI,EAMA,-14.23736,-71.23669,M,4726158C,,AUTOMATICA
SIBINACOCHA,EMA,-13.92214,-71.01823,M,47E8B578,,AUTOMATICA
QUISOQUIPINA,EMA,-13.79505,-70.88622,M,472E025C,,AUTOMATICA
SALCCA,EHA,-14.16991,-71.23186,H,114118,,AUTOMATICA
MARCA CUNKA,EMA,-14.49847,-72.08952,M,114123,,AUTOMATICA
HUAYHUAHUASI,EAMA,-14.67242,-71.51991,M,114124,,AUTOMATICA
QUILLABAMBA,EAMA,-12.85644,-72.69174,M,4729B3E6,,AUTOMATICA
PONGO DE MAINIQUE,EMA,-12.24986,-72.82447,M,112264,,AUTOMATICA
SAN PABLO,EMA,-13.02506,-72.61988,M,4729658E,,AUTOMATICA
PICHARI,EMA,-12.52296,-73.83956,M,47E880E2,,AUTOMATICA
PAUCARTAMBO,EHA,-13.3177,-71.59741,H,210007,,AUTOMATICA
ACJANACO ,EMA,-13.19672,-71.61941,M,4722A338,,AUTOMATICA
MARCAPATA ,EMA,-13.58954,-70.96281,M,4722B04E,,AUTOMATICA
QORIHUAYRACHINA,EMA,-13.22419,-72.43383,M,4729867C,,AUTOMATICA
INTIHUATANA H,EHA,-13.18517,-72.52319,H,472935F2,,AUTOMATICA
INTIHUATANA M,EMA,-13.17418,-72.56036,M,472852EE,,AUTOMATICA
HUAYLLABAMBA,EMA,-13.26581,-72.44881,M,4727C11E,,AUTOMATICA
PACAYMAYO,EMA,-13.23419,-72.49841,M,4729950A,,AUTOMATICA
CHILCA,EHA,-13.2235,-72.34056,H,472A9204,,AUTOMATICA
COCHAMARCA,EAMA,-12.99,-75.51019,M,4720CDF8,,AUTOMATICA
CHALLACA GORE,EHMA,-13.7898,-75.417,H,47284198,,AUTOMATICA
CORDOVA GORE,EMA,-14.03333,-75.16667,M,4728F216,,AUTOMATICA
CHALLACA,EMA,-13.7905,-75.3821,M,472811E4,,AUTOMATICA
COCHABAMBA GRANDE,EMA,-12.2179,-74.5103,M,112269,,AUTOMATICA
HUANUCO,EMA,-9.9378,-76.24793,M,109082,,AUTOMATICA
CHINCHAVITO,EHA,-9.515,-75.9425,H,472D0552,,AUTOMATICA
TARUCA,EHA,-9.84694,-76.15111,H,472B730C,,AUTOMATICA
SAN MARTIN,EMA,-9.40385,-76.76482,M,4720EB14,,AUTOMATICA
CACHICOTO,EMA,-9.18361,-76.35028,M,47E845FC,,AUTOMATICA
PUENTE BELLA,EHA,-9.32,-76.02778,H,472DA5AA,,AUTOMATICA
TINGO MARIA,EHMA,-9.29601,-76.00207,H,47270400,,AUTOMATICA
PUERTO INCA,EMA,-9.38139,-74.96083,M,4727A4F8,,AUTOMATICA
PUCA PUCA,EAMA,-9.87895,-76.5909,M,109094,,AUTOMATICA
OCUCAJE,EMA,-14.37839,-75.68206,M,47255188,,AUTOMATICA
HUAMANI EL TAMBO GORE,EHMA,-13.84358,-75.58928,H,213503,,AUTOMATICA
BETA SANTIAGO,EMA,-14.23739,-75.67022,M,472A446C,,AUTOMATICA
FONAGRO GORE,EMA,-13.46278,-76.13361,M,4728B11C,,AUTOMATICA
IMATA,EMA,-15.84266,-71.09062,M,47E3834A,,AUTOMATICA
PILLONES,EMA,-15.97861,-71.21333,M,47E373CE,,AUTOMATICA
SUMBAY,EHA,-15.81667,-71.11667,H,472ED434,,AUTOMATICA
COTACOTA,EMA,-15.21331,-71.38955,M,47E8A60E,,AUTOMATICA
VISCA VISCA,EAA,-14.7228,-71.9787,M,114119,,AUTOMATICA
COROPUNA,EMA,-15.53597,-72.61056,M,115150,,AUTOMATICA
COTAHUASI,EMA,-15.21134,-72.89331,M,47280292,,AUTOMATICA
PAMPA CANGALLO,EMA,-13.56184,-74.19889,M,4729D600,,AUTOMATICA
SANTA CRUZ DE HOSPICIO,EAMA,-13.4383,-74.7993,M,113248,,AUTOMATICA
CCONTACC,EMA,-14.5423,-74.2642,M,114122,,AUTOMATICA
PAMPA GALERAS,EMA,-14.66917,-74.40361,M,114127,,AUTOMATICA
HURAY HUMA,EMA,-14.564,-73.5558,M,114121,,AUTOMATICA
CORA CORA,EMA,-15.01139,-73.77917,M,47262016,,AUTOMATICA
RIO GRANDE,EHA,-7.09094,-78.52073,H,472210B6,,AUTOMATICA
COSPAN,EMA,-7.42856,-78.54106,M,472D4658,,AUTOMATICA
CAJABAMBA,EMA,-7.62167,-78.05111,M,4729F0EC,,AUTOMATICA
CRISNEJAS,EHA,-7.4639,-78.1131,H,472A32FC,,AUTOMATICA
CELENDIN,EMA,-6.85303,-78.14487,M,4726631C,,AUTOMATICA
BALSAS,EHMA,-6.84461,-78.03025,H,472501F4,,AUTOMATICA
CHOTA,EMA,-6.55405,-78.67588,M,4726C3E4,,AUTOMATICA
HUAMBOS,EMA,-6.45364,-78.96319,M,47E94706,,AUTOMATICA
PUENTE SAN CARLOS,EHMA,-6.61515,-79.27136,H,47E1D6C2,,AUTOMATICA
LA MUCHALA,EMA,-6.47998,-79.22406,M,47E35522,,AUTOMATICA
CASCABAMBA,EMA,-7.38407,-78.72682,M,472C92CA,,AUTOMATICA
PUENTE CHILETE,EHMA,-7.21968,-78.83798,H,4727470A,,AUTOMATICA
GUZMANGO,EMA,-7.38133,-78.9033,M,472C81BC,,AUTOMATICA
SAUCEPAMPA,EMA,-9.0309,-77.7763,M,109091,,AUTOMATICA
PUENTE CAHUA,EHA,-10.60597,-77.34388,H,472182DA,,AUTOMATICA
RECUAY,EMA,-9.72919,-77.45365,M,47259496,,AUTOMATICA
PACHACOTO,EMA,-9.85243,-77.40607,M,47E89394,,AUTOMATICA
SHAQUEK,EMA,-10.07116,-77.52504,M,110138,,AUTOMATICA
PUENTE SALINAS AMOJAO,EHA,-5.45096,-78.4894,H,472B55E0,,AUTOMATICA
BAGUA,EAMA,-5.66145,-78.53403,M,472C57D4,,AUTOMATICA
CORRAL QUEMADO,EHA,-5.75461,-78.69208,H,472B607A,,AUTOMATICA
MAGUNCHAL,EHA,-5.88987,-78.18876,H,472B2370,,AUTOMATICA
NARANJITO,EHA,-5.81968,-78.27598,H,220907,,AUTOMATICA
BUENA VISTA,EMA,-9.43372,-78.20828,M,109096,,AUTOMATICA
CHAVIN,EAMA,-9.58598,-77.17529,M,4725A10C,,AUTOMATICA
PUENTE CUNYAC,EHA,-13.56213,-72.57525,H,472C44A2,,AUTOMATICA
GRANJA SAN ANTONIO,EAMA,-13.60492,-72.85693,M,47263360,,AUTOMATICA
CASACCANCHA,EMA,-13.98923,-72.29832,M,472A1410,,AUTOMATICA
PUENTE PAMPAS,EHA,-13.43493,-73.82737,H,250900,,AUTOMATICA
TANCAYLLO,EMA,-13.63523,-73.69004,M,113246,,AUTOMATICA
CHARCANI PSI,EHA,-16.31086,-71.49511,H,472147C4,,AUTOMATICA
TINGO GRANDE,EHA,-16.45992,-71.57431,H,472EE1AE,,AUTOMATICA
SAN JOSE DE UZUNA,EMA,-16.58103,-71.32836,M,47E3B6D0,,AUTOMATICA
PUENTE DEL DIABLO PSI,EHA,-16.42665,-71.67507,H,4722E032,,AUTOMATICA
BOLLADERO,EHA,-16.58989,-72.00886,H,47E26242,,AUTOMATICA
PATAHUASI,EMA,-16.05542,-71.41481,M,47E360B8,,AUTOMATICA
SOCOSANI,EHA,-16.25944,-71.72056,H,47E27134,,AUTOMATICA
OCOÑA,EHMA,-16.427,-73.1145,H,472D23BE,,AUTOMATICA
HUATIAPA PSI,EHA,-16.00806,-72.48355,H,214400,,AUTOMATICA
CHIVAY,EMA,-15.64163,-71.60169,M,4723D752,,AUTOMATICA
HUANCA,EMA,-16.03458,-71.88108,M,47E3A5A6,,AUTOMATICA
SAN MARTIN DE PORRES,EAA,-12.00889,-77.08447,M,112265,,AUTOMATICA
SANTA ANITA,EMA,-12.04302,-76.97144,M,112208,,AUTOMATICA
HUAROS,EAMA,-11.40744,-76.57584,M,4725F170,,AUTOMATICA
CAÑETE,EMA,-13.07475,-76.33042,M,113249,,AUTOMATICA
SOCSI,EHA,-13.02825,-76.1945,H,472191AC,,AUTOMATICA
SANTO DOMINGO,EHMA,-11.37,-77.02833,H,47E214D2,,AUTOMATICA
PIRCA,EMA,-11.23284,-76.65514,M,47E34654,,AUTOMATICA
PUENTE CALLANTAMA,EHA,-11.2989,-76.8518,H,47E22148,,AUTOMATICA
PALLAC,EMA,-11.34875,-76.80799,M,47E31628,,AUTOMATICA
EMA PAMPA DE MAJES,EMA,-16.33565,-72.15266,M,4729E39A,,AUTOMATICA
HUANCAVELICA,EMA,-12.77163,-75.01237,M,472722EC,,AUTOMATICA
VICHAYCOCHA,EHA,-11.13916,-76.62455,H,47E257D8,,AUTOMATICA
SANTA CRUZ,EMA,-11.19827,-76.63487,M,47E330C4,,AUTOMATICA
CALLANCA,EHA,-11.38887,-76.76952,H,47E244AE,,AUTOMATICA
CUCHUANCA,EHA,-11.20158,-76.7881,H,47E2323E,,AUTOMATICA
MATUCANA,EMA,-11.83911,-76.378,M,472CE45A,,AUTOMATICA
PUENTE ANTAPUCRO,EHA,-12.0333,-76.6333,H,212700,,AUTOMATICA
RIO BLANCO,EHMA,-11.73447,-76.25961,H,212604,,AUTOMATICA
CASAPALCA,EMA,-11.638,-76.23325,M,472D73C2,,AUTOMATICA
AUTISHA,EHA,-11.73361,-76.60639,H,47A03AC4,,AUTOMATICA
SAN MATEO ,EHA,-11.76012,-76.30111,H,212605,,AUTOMATICA
SAN MATEO DE OTAO,EMA,-11.847,-76.56359,M,472EC742,,AUTOMATICA
SANTA EULALIA,EHMA,-11.92,-76.66664,M,472E24B0,,AUTOMATICA
SANTIAGO DE TUNA,EMA,-11.9832,-76.5242,M,472CA750,,AUTOMATICA
PICOY,EHMA,-10.92159,-76.73703,H,110139,,AUTOMATICA
SAYAN,EHMA,-11.13472,-77.19833,H,4724966C,,AUTOMATICA
CARANIA,EAMA,-12.3444,-75.87215,M,472364DC,,AUTOMATICA
SANTA CLOTILDE,EMA,-2.48757,-73.67925,M,47271776,,AUTOMATICA
ENAPU PERU,EHMA,-3.72722,-73.23694,H,47252718,,AUTOMATICA
CABALLOCOCHA,EMA,-3.91125,-70.51206,M,4727547C,,AUTOMATICA
PEBAS,EMA,-3.31791,-71.85962,M,47288486,,AUTOMATICA
MALINOWSKY,EMA,-12.93411,-69.5175,M,47E8336C,,AUTOMATICA
IÑAPARI,EAMA,-10.95589,-69.578,M,472587E0,,AUTOMATICA
MOQUEGUA,EAMA,-17.17874,-70.93267,M,4723F1BE,,AUTOMATICA
12 DE OCTUBRE,EAMA,-10.60641,-76.52927,M,110137,,AUTOMATICA
OXAPAMPA,EMA,-10.59417,-75.38417,M,4725D79C,,AUTOMATICA
PUERTO BERMUDEZ,EAMA,-10.28619,-74.94356,M,109093,,AUTOMATICA
BOCATOMA CHIPILLICO,EHA,-4.7142,-80.11825,M,47E0E1A2,,AUTOMATICA
TAMBO GRANDE,EHA,-4.93848,-80.34703,H,47E0522C,,AUTOMATICA
HUALCUY,EMA,-4.74701,-79.60729,M,47E281B0,,AUTOMATICA
AYABACA,EMA,-4.63776,-79.71077,M,472606FA,,AUTOMATICA
PAIMAS,EMA,-4.63439,-79.94584,M,472FC5B8,,AUTOMATICA
EL CIRUELO,EHA,-4.29899,-80.1673,H,47E9177A,,AUTOMATICA
PUENTE MACARA,EHA,-4.39338,-79.96412,H,47E0C74E,,AUTOMATICA
HUANCABAMBA,EMA,-5.24681,-79.45399,M,472FE354,,AUTOMATICA
HUARMACA,EMA,-5.56586,-79.52544,M,472761E6,,AUTOMATICA
PUENTE ÑACARA,EHA,-5.1128,-80.17296,H,47E0415A,,AUTOMATICA
CHULUCANAS,EMA,-5.10844,-80.16954,M,472F6540,,AUTOMATICA
CHALACO,EMA,-5.03389,-79.83,M,472FB328,,AUTOMATICA
SAN PEDRO,EHA,-5.07954,-80.0162,H,47E08444,,AUTOMATICA
MORROPON,EMA,-5.19465,-79.97107,M,472F7636,,AUTOMATICA
SALITRAL EHA,EHA,-5.34602,-79.83761,H,47E067B6,,AUTOMATICA
MALACASI,EMA,-5.33977,-79.85794,M,472FA05E,,AUTOMATICA
HACIENDA BARRIOS,EHA,-5.2895,-79.69909,H,47E074C0,,AUTOMATICA
PUENTE SIMON RODRIGUEZ,EHA,-4.87999,-81.02038,H,47E0B1DE,,AUTOMATICA
LANCONES,EMA,-4.6429,-80.54716,M,472FD6CE,,AUTOMATICA
ALAMOR,EHA,-4.47749,-80.39788,H,47E0D438,,AUTOMATICA
LA ARDILLA,EHA,-4.49094,-80.38819,H,47E09732,,AUTOMATICA
PUNO,EMA,-15.82625,-70.01208,M,472DD33A,,AUTOMATICA
ILLPA,EMA,-15.68333,-70.08333,M,472E4156,,AUTOMATICA
LARAQUERI,EMA,-16.13592,-70.04589,M,472CB426,,AUTOMATICA
UPINA,EAMA,-13.88492,-70.08281,M,4721B992,,AUTOMATICA
AYMAÑA,EMA,-13.87279,-70.66759,M,4721AAE4,,AUTOMATICA
ILAVE,EHMA,-16.08825,-69.62592,M,472E112A,,AUTOMATICA
PUENTE CARRETERA,EHA,-15.25544,-69.87381,H,47251282,,AUTOMATICA
LAGUNILLAS,EHMA,-15.74562,-70.6775,H,472E8448,,AUTOMATICA
CRUCERO ALTO,EMA,-15.76448,-70.911,M,47E3903C,,AUTOMATICA
PALCA,EMA,-15.23587,-70.59315,M,472E37C6,,AUTOMATICA
JULIACA,EMA,-15.47106,-70.17122,M,472CF72C,,AUTOMATICA
SHANAO,EHA,-6.41291,-76.60001,H,210006,,AUTOMATICA
HUAYABAMBA,EHA,-7.26861,-76.73694,H,212600,,AUTOMATICA
NARANJILLO,EMA,-5.80997,-77.39328,M,4724851A,,AUTOMATICA
EL PORVENIR,EMA,-6.58923,-76.31834,M,4723013A,,AUTOMATICA
CERRO BLANCO,EHA,-17.96873,-70.15231,H,47E13530,,AUTOMATICA
CORUCA,EHA,-17.63312,-70.45456,H,47E1A052,,AUTOMATICA
CAPLINA,EHA,-17.6921,-69.92511,H,47E143A0,,AUTOMATICA
CHALLATA,EHA,-17.81542,-70.09896,H,47E195C8,,AUTOMATICA
REPRESA PAUCARANI,EHA,-17.53436,-69.76499,H,47E113DC,,AUTOMATICA
BOCATOMA EL AYRO,EMA,-17.58019,-69.62673,M,47E2B42A,,AUTOMATICA
CANDARAVE,EMA,-17.268,-70.25409,M,47E2C2BA,,AUTOMATICA
CORACHAY II,EHA,-17.11435,-70.28838,H,47E1654C,,AUTOMATICA
LAGUNA ARICOTA,EHA,-17.37093,-70.30847,H,47E12646,,AUTOMATICA
PUENTE VIEJO,EHA,-17.61756,-70.76097,H,47E186BE,,AUTOMATICA
TICAPAMPA PSI,EHA,-17.47659,-70.54263,H,214800,,AUTOMATICA
TARATA,EMA,-17.47937,-70.03665,M,47E2D1CC,,AUTOMATICA
CHUAPALCA,EMA,-17.30882,-69.66179,M,47E292C6,,AUTOMATICA
PUENTE TALAPALCA,EHA,-17.47487,-70.17265,H,47E150D6,,AUTOMATICA
ANCOAQUE,EHA,-17.19972,-69.93917,H,117059,,AUTOMATICA
VILACOTA,EMA,-17.07909,-70.04302,M,47E2A75C,,AUTOMATICA
SALIDA TUNEL KOVIRE,EHA,-17.23804,-70.00854,H,47E1763A,,AUTOMATICA
REPRESA JARUMAS,EHA,-17.3692,-69.94863,H,47E1B324,,AUTOMATICA
PUENTE TUMBES,EHA,-3.5709,-80.4609,H,47E024BC,,AUTOMATICA
CAMPAMENTO SEDE,EMA,-3.55115,-80.42962,M,472EF2D8,,AUTOMATICA
RICA PLAYA,EMA,-3.81333,-80.4575,M,472F264A,,AUTOMATICA
HUASIMO,EMA,-3.99815,-80.50392,M,472F43AC,,AUTOMATICA
CABO INGA,EMA,-3.97594,-80.40182,M,472F00A6,,AUTOMATICA
CABO INGA,EHA,-3.97873,-80.39938,H,47E01126,,AUTOMATICA
EL TIGRE,EHMA,-3.7687,-80.45689,H,4724A3F6,,AUTOMATICA
CAÑAVERAL,EMA,-3.93905,-80.65055,M,472F13D0,,AUTOMATICA
MATAPALO,EMA,-3.68276,-80.19851,M,472F353C,,AUTOMATICA
PUERTO ESPERANZA,EMA,-9.75028,-70.75028,M,47E87066,,AUTOMATICA
LETRAYOC PSI,EHA,-13.65773,-75.74496,H,213403,,AUTOMATICA
HUAYTAPALLANA,EMA,-11.92667,-75.06167,M,472DF5D6,,AUTOMATICA
SATIPO,EAMA,-11.23361,-74.70028,M,4725C4EA,,AUTOMATICA
TARMA,EAMA,-11.3967,-75.6899,M,47257764,,AUTOMATICA
CHACAPALPA,EMA,-11.7328,-75.7557,M,111288,,AUTOMATICA
MARCAPOMACOCHA,EMA,-11.40443,-76.32508,M,472D9030,,AUTOMATICA
CASA GRANDE,EMA,-7.75031,-79.18869,M,472D30C8,,AUTOMATICA
CALLANCAS,EMA,-7.7675,-78.47729,M,472D8346,,AUTOMATICA
LA FORTUNA,EMA,-7.67042,-78.40242,M,107131,,AUTOMATICA
USQUIL,EMA,-7.8186,-78.41497,M,472D60B4,,AUTOMATICA
PUENTE COINA,EHMA,-7.79636,-78.38012,M,472E74CC,,AUTOMATICA
CAPACHIQUE,EMA,-7.85642,-78.31184,M,472EB1D2,,AUTOMATICA
TICAPAMPA,EMA,-7.91641,-77.90148,M,107130,,AUTOMATICA
QUIRUVILCA,EMA,-8.00419,-78.3079,M,4727319A,,AUTOMATICA
PUENTE PALMIRA,EHMA,-7.54919,-78.81051,M,472E5220,,AUTOMATICA
CASCAS,EMA,-7.47987,-78.82367,M,472EA2A4,,AUTOMATICA
LUCMA,EMA,-7.64333,-78.55135,M,472D552E,,AUTOMATICA
EL TAMBO,EHMA,-7.57398,-78.70655,M,47E0A2A8,,AUTOMATICA
MARMOT,EMA,-7.7635,-78.66725,M,472CC2B6,,AUTOMATICA
TINAJONES,EMA,-6.65489,-79.42792,M,47E2F720,,AUTOMATICA
TONGORRAPE,EMA,-6.06692,-79.68203,M,47201542,,AUTOMATICA
EL VIRREY,EMA,-5.53579,-79.98416,M,472F50DA,,AUTOMATICA
OLMOS,EMA,-5.83714,-79.81911,M,4726F67E,,AUTOMATICA
ANTONIO RAIMONDI,EMA,-11.77606,-77.15139,M,472A218A,,AUTOMATICA
CAMPO DE MARTE,EMA,-12.07056,-77.04314,M,112181,,AUTOMATICA
VON HUMBOLDT,EMA,-12.08221,-76.93931,M,472AC278,,AUTOMATICA
ÑAÑA,EMA,-11.98744,-76.84194,M,111290,,AUTOMATICA
CHOSICA,EHMA,-11.92986,-76.68964,H,47278214,,AUTOMATICA
SAN JUAN DE LURIGANCHO,EMA,-11.98164,-76.99925,M,112267,,AUTOMATICA
